[
  {   
    "img": "https://www.atleticodemadrid.com/images/escudos_pa/591.jpg",
    "name": "PEÑA ATLÉTICA CENTURIA GERMANA",
    "country": "Alemania",
    "city": "Rennania-Westfalia",
    "site": "Bar Germano Atletico",
    "fundation": 2002,
    "phoneNumber": "4987429",
    "location": {
      "type": "Point",
      "coordinates": [51.74894, 8.71828]
    },
    "imgTourist": []
    
  },
  {   
    "img": "https://cdn-icons-png.flaticon.com/512/1384/1384999.png",
    "name": "PEÑA ATLÉTICA FORTUNA-ATLETICO DUSSELDORF",
    "country": "Alemania",
    "city": "Dusseldorf",
    "site": "Bar Dusseldorf",
    "fundation": 2016,
    "phoneNumber": "5487629",
    "location": {
      "type": "Point",
      "coordinates": [51.23575, 6.8998]
    },
    "imgTourist": []
    
  },
  {   
    "img": "https://cdn-icons-png.flaticon.com/512/1384/1384999.png",
    "name": "PEÑA ATLÉTICA CONECCTION ATM",
    "country": "Alemania",
    "city": "Dusseldorf",
    "site": "Bar ATM",
    "fundation": 2020,
    "phoneNumber": "5497429",
    "location": {
      "type": "Point",
      "coordinates": [51.27291, 6.77937]
    },
    "imgTourist": []
    
  }, 
    {   
      "img": "https://cdn-icons-png.flaticon.com/512/1384/1384999.png",
      "name": "PEÑA ATLÉTICA TATENGUES",
      "country": "Argentina",
      "city": "Santa Fe",
      "site": "Bar Romario",
      "fundation": 2007,
      "phoneNumber": "5487429",
      "location": {
        "type": "Point",
        "coordinates": [-31.62541, -60.70042 ]
      },
      "imgTourist": []
      
    },
    {
        "img": "https://cdn-icons-png.flaticon.com/512/1384/1384999.png",
        "name": "PEÑA ATLÉTICA DE ROSARIO JORGE GRIFFA",
        "country": "Argentina",
        "city": "Santa Fe",
        "site": "Bar Griffa",
        "fundation": 2020,
        "phoneNumber": "5464598",
        "location": {
          "type": "Point",
          "coordinates": [-31.611185, -60.69381]
        },
        "imgTourist": []
        
      },
      {
        "img": "https://www.atleticodemadrid.com/images/escudos_pa/837.jpg",
        "name": "PEÑA ATLÉTICA ARGENTINA CHOLO SIMEONE",
        "country": "Argentina",
        "city": "Buenos Aires",
        "site": "Bar el doblete",
        "fundation": 2020,
        "phoneNumber": "5487621",
        "location": {
          "type": "Point",
          "coordinates": [-34.614856, -58.454431 ]
        },
        "imgTourist": []
        
      },
      {
        "img": "https://www.atleticodemadrid.com/images/escudos_pa/836.jpg",
        "name": "PEÑA ATLÉTICA WOMBAT-ATLETICOS EN MELBOURNE",
        "country": "Australia",
        "city": "Victoria",
        "site": "Bar Wombat Atleti",
        "fundation": 2020,
        "phoneNumber": "618876557621",
        "location": {
          "type": "Point",
          "coordinates": [-37.68917, 144.89564]
        },
        "imgTourist": []
        
      },
      {
        "img": "https://cdn-icons-png.flaticon.com/512/1384/1384999.png",
        "name": "PEÑA ATLÉTICA SETE",
        "country": "Brasil",
        "city": "Salvador de Bahia",
        "site": "Bar Familia Sete",
        "fundation": 2008,
        "phoneNumber": "558876557621",
        "location": {
          "type": "Point",
          "coordinates": [-12.942549, -38.440460]
        },
        "imgTourist": []
        
      },
      {
        "img": "https://cdn-icons-png.flaticon.com/512/1384/1384999.png",
        "name": "PEÑA ATLÉTICA ORGULHOSOS DO 14",
        "country": "Brasil",
        "city": "SAO Paulo",
        "site": "Bar Do Brasil",
        "fundation": 2008,
        "phoneNumber": "557876557621",
        "location": {
          "type": "Point",
          "coordinates": [-23.57165, -46.61996]
        },
        "imgTourist": []
        
      },
      {
        "img": "https://www.atleticodemadrid.com/images/escudos_pa/500.jpg",
        "name": "BELGIAN CLUB ATLÉTICO DE MADRID FAN CLUB",
        "country": "Belgica",
        "city": "Flandes Oriental",
        "site": "Bar Futre",
        "fundation": 1999,
        "phoneNumber": "327876557621",
        "location": {
          "type": "Point",
          "coordinates": [51.04510, 3.72567]
        },
        "imgTourist": []
        
      },
      {
        "img": "https://cdn-icons-png.flaticon.com/512/1384/1384999.png",
        "name": "PEÑA ATLÉTICA FRENTE DE LIBERACIÓN PANADERO DÍAZ",
        "country": "Belgica",
        "city": "Bruselas",
        "site": "Bar El Panadero",
        "fundation": 2008,
        "phoneNumber": "327877557621",
        "location": {
          "type": "Point",
          "coordinates": [50.86010, 4.37470]
        },
        "imgTourist": []
        
      },
      {
        "img": "https://www.atleticodemadrid.com/images/escudos_pa/719.jpg",
        "name": "PEÑA ATLÉTICA DIABLOS ROJIBLANCOS",
        "country": "Belgica",
        "city": "Limburgo",
        "site": "Bar infierno rojiblanco",
        "fundation": 2013,
        "phoneNumber": "327877555621",
        "location": {
          "type": "Point",
          "coordinates": [51.13068, 5.45310]
        },
        "imgTourist": []
        
      },
      {
        "img": "https://cdn-icons-png.flaticon.com/512/1384/1384999.png",
        "name": "PEÑA ATLÉTICA FORMOSA",
        "country": "China",
        "city": "Kaohsiung",
        "site": "Bar Chao Cho Chin",
        "fundation": 2011,
        "phoneNumber": "867877555621",
        "location": {
          "type": "Point",
          "coordinates": [22.62616, 114.07011]
        },
        "imgTourist": []
        
      },
      {
        "img": "https://www.atleticodemadrid.com/images/escudos_pa/810.jpg",
        "name": "PEÑA TRINITARIA ATLÉTICO DE MADRID",
        "country": "Cuba",
        "city": "Sancti Spiritus",
        "site": "Bar Cuba Libre",
        "fundation": 2017,
        "phoneNumber": "537877555621",
        "location": {
          "type": "Point",
          "coordinates": [21.93020, -79.44252]
        },
        "imgTourist": []
        
      },
      {
        "img": "https://www.atleticodemadrid.com/images/escudos_pa/825.jpg",
        "name": "PEÑA ATLÉTICA LA HABANA",
        "country": "Cuba",
        "city": "La Habana",
        "site": "Bar Libre Puros",
        "fundation": 2018,
        "phoneNumber": "537876555621",
        "location": {
          "type": "Point",
          "coordinates": [23.102263, -82.420754]
        },
        "imgTourist": []
        
      },
      {
        "img": "https://www.atleticodemadrid.com/images/escudos_pa/842.jpg",
        "name": "PEÑA ROJIBLANCA DE DINAMARCA",
        "country": "Dinamarca",
        "city": "Nordjyllandn",
        "site": "Bar Din",
        "fundation": 2016,
        "phoneNumber": "457876555621",
        "location": {
          "type": "Point",
          "coordinates": [57.487185, 9.891431]
        },
        "imgTourist": []
        
      },
      {
        "img": "https://cdn-icons-png.flaticon.com/512/1384/1384999.png",
        "name": "PEÑA ATLÉTICO DE MADRID OFFICIAL FAN CLUB UAE",
        "country": "Emiratos Arabes Unidos",
        "city": "Dubai",
        "site": "Bar Emiratos Atleticos",
        "fundation": 2015,
        "phoneNumber": "9717876555621",
        "location": {
          "type": "Point",
          "coordinates": [25.04426, 55.15752]
        },
        "imgTourist": []
        
      },
      {
        "img": "https://www.atleticodemadrid.com/images/escudos_pa/653.jpg",
        "name": "PEÑA ATLÉTICA BRITANNIA",
        "country": "Escocia",
        "city": "Lanarkshire",
        "site": "Bar Escoces",
        "fundation": 2008,
        "phoneNumber": "447876555621",
        "location": {
          "type": "Point",
          "coordinates": [55.67317, -3.77931]
        },
        "imgTourist": []
        
      },
      {
        "img": "https://www.atleticodemadrid.com/images/escudos_pa/764.jpg",
        "name": "PEÑA ATLÉTICA INDIOS DE CALEDONIA",
        "country": "Escocia",
        "city": "Edimburgo",
        "site": "Bar Edim Atleti",
        "fundation": 2016,
        "phoneNumber": "447873355621",
        "location": {
          "type": "Point",
          "coordinates": [55.95224, -3.19655]
        },
        "imgTourist": []
        
      },
      {
        "img": "https://www.atleticodemadrid.com/images/escudos_pa/695.jpg",
        "name": "PEÑA ATLÉTICO DE MADRID NEW YORK CITY",
        "country": "Estados Unidos",
        "city": "New York",
        "site": "Bar NYC Atleti",
        "fundation": 2011,
        "phoneNumber": "17873355621",
        "location": {
          "type": "Point",
          "coordinates": [40.69472, -74.09260]
        },
        "imgTourist": []
        
      },
      {
        "img": "https://www.atleticodemadrid.com/images/escudos_pa/716.jpg",
        "name": "PEÑA ATLÉTICA USA",
        "country": "Estados Unidos",
        "city": "Florida",
        "site": "Bar Florida Atleti",
        "fundation": 2013,
        "phoneNumber": "17874355621",
        "location": {
          "type": "Point",
          "coordinates": [26.09438, -80.18095]
        },
        "imgTourist": []
        
      },
      {
        "img": "https://www.atleticodemadrid.com/images/escudos_pa/750.jpg",
        "name": "PEÑA ATLÉTICA SAN FRANCISCO",
        "country": "Estados Unidos",
        "city": "California",
        "site": "Bar OC Atleti",
        "fundation": 2015,
        "phoneNumber": "17872355621",
        "location": {
          "type": "Point",
          "coordinates": [37.73227, -122.40734]
        },
        "imgTourist": []
        
      },
      {
        "img": "https://www.atleticodemadrid.com/images/escudos_pa/625.jpg",
        "name": "PEÑA ROJIBLANCA FRANCESA",
        "country": "Francia",
        "city": "Paris",
        "site": "Bar Du Atleti",
        "fundation": 2006,
        "phoneNumber": "337872355621",
        "location": {
          "type": "Point",
          "coordinates": [48.844764, 2.294156]
        },
        "imgTourist": []
        
      },
      {
        "img": "https://www.atleticodemadrid.com/images/escudos_pa/726.jpg",
        "name": "PEÑA ATLÉTICA GUATEMALA",
        "country": "Guatemala",
        "city": "Sacatepequez",
        "site": "Bar Forza Atleti",
        "fundation": 2014,
        "phoneNumber": "5027872355621",
        "location": {
          "type": "Point",
          "coordinates": [14.554516, -90.731206]
        },
        "imgTourist": []
        
      },
      {
        "img": "https://cdn-icons-png.flaticon.com/512/1384/1384999.png",
        "name": "PEÑA ATLÉTICA DE HUNGRIA",
        "country": "Hungria",
        "city": "Pest Megye",
        "site": "Bar Atleti",
        "fundation": 2009,
        "phoneNumber": "3627872355621",
        "location": {
          "type": "Point",
          "coordinates": [47.501099, 19.061177]
        },
        "imgTourist": []
        
      },
      {
        "img": "https://cdn-icons-png.flaticon.com/512/1384/1384999.png",
        "name": "PEÑA ATLÉTICA O´DONNELL",
        "country": "Irlanda Del Norte",
        "city": "Londonderry",
        "site": "Bar O´Donnell",
        "fundation": 2005,
        "phoneNumber": "427872355621",
        "location": {
          "type": "Point",
          "coordinates": [54.99774, -7.30857]
        },
        "imgTourist": []
        
      },
      {
        "img": "https://www.atleticodemadrid.com/images/escudos_pa/831.jpg",
        "name": "PEÑA ATLETICO DE MADRID ISRAEL",
        "country": "Israel",
        "city": "Modi´in",
        "site": "Bar Mono Burgos",
        "fundation": 2019,
        "phoneNumber": "9727872355621",
        "location": {
          "type": "Point",
          "coordinates": [33.8893, 35.01774]
        },
        "imgTourist": []
        
      },
      {
        "img": "https://cdn-icons-png.flaticon.com/512/1384/1384999.png",
        "name": "PEÑA ATLETICA SOL NACIENTE",
        "country": "Japon",
        "city": "Tokio",
        "site": "Bar Tokio ",
        "fundation": 2018,
        "phoneNumber": "8127872355621",
        "location": {
          "type": "Point",
          "coordinates": [35.66697, 139.75400]
        },
        "imgTourist": []
        
      },
      {
        "img": "https://www.atleticodemadrid.com/images/escudos_pa/679.jpg",
        "name": "PEÑA ATLETICA COLCHONEROS DE LUXEMBURGO",
        "country": "Luxemburgo",
        "city": "Luxemburgo",
        "site": "Bar Colchoneros ",
        "fundation": 2009,
        "phoneNumber": "35227872355621",
        "location": {
          "type": "Point",
          "coordinates": [49.60556, 6.12797]
        },
        "imgTourist": []
        
      },
      {
        "img": "https://www.atleticodemadrid.com/images/escudos_pa/642.jpg",
        "name": "PEÑA ATLÉTICA LARBI BEN BAREK",
        "country": "Marruecos",
        "city": "Rabat",
        "site": "Bar Rabat",
        "fundation": 2007,
        "phoneNumber": "212227872355621",
        "location": {
          "type": "Point",
          "coordinates": [33.99767, -6.84821]
        },
        "imgTourist": []
        
      },
      {
        "img": "https://www.atleticodemadrid.com/images/escudos_pa/663.jpg",
        "name": "PEÑA ATLÉTICA DE NORUEGA",
        "country": "Noruega",
        "city": "Haga",
        "site": "Bar Hagase del Atleti",
        "fundation": 2008,
        "phoneNumber": "472227872355621",
        "location": {
          "type": "Point",
          "coordinates": [59.91288, 10.79305]
        },
        "imgTourist": []
        
      },
      {
        "img": "https://cdn-icons-png.flaticon.com/512/1384/1384999.png",
        "name": "HUSARES ROJIBLANCOS DE POLONIA",
        "country": "Polonia",
        "city": "Mazowiecki",
        "site": "Bar Mazo Atleti",
        "fundation": 2011,
        "phoneNumber": "482227872355621",
        "location": {
          "type": "Point",
          "coordinates": [52.23617, 21.01609]
        },
        "imgTourist": []
        
      },
      {
        "img": "https://www.atleticodemadrid.com/images/escudos_pa/782.jpg",
        "name": "PEÑA ATLETICA DE POLONIA",
        "country": "Polonia",
        "city": "Slaskie",
        "site": "Bar Podlski",
        "fundation": 2016,
        "phoneNumber": "482337872355621",
        "location": {
          "type": "Point",
          "coordinates": [50.33821, 19.22099]
        },
        "imgTourist": []
        
      },
      {
        "img": "https://cdn-icons-png.flaticon.com/512/1384/1384999.png",
        "name": "PEÑA ATLÉTICA QATAR-ATLÉTICO DE MADRID SUPPORTERS CLUB",
        "country": "Qatar",
        "city": "Doha",
        "site": "Bar Doha Atleti",
        "fundation": 2016,
        "phoneNumber": "812337872355621",
        "location": {
          "type": "Point",
          "coordinates": [25.28536, 51.53877]
        },
        "imgTourist": []
        
      },
      {
        "img": "https://cdn-icons-png.flaticon.com/512/1384/1384999.png",
        "name": "PEÑA ATLÉTICA GASCA DE BUCURESTI",
        "country": "Rumania",
        "city": "Bucarest",
        "site": "Bar Europa League",
        "fundation": 2011,
        "phoneNumber": "402337872355621",
        "location": {
          "type": "Point",
          "coordinates": [44.44549, 26.09591]
        },
        "imgTourist": []
        
      },
      {
        "img": "https://www.atleticodemadrid.com/images/escudos_pa/815.jpg",
        "name": "PEÑA ATLÉTICA COLCHONEROS UNIDOS DE RUSIA",
        "country": "Rusia",
        "city": "Moscu",
        "site": "Bar Unidos por el Atleti",
        "fundation": 2018,
        "phoneNumber": "72337872355621",
        "location": {
          "type": "Point",
          "coordinates": [55.73141, 33.54780]
        },
        "imgTourist": []
        
      },
      {
        "img": "https://www.atleticodemadrid.com/images/escudos_pa/820.jpg",
        "name": "PEÑA ATLÉTICO DE MADRID SINGAPORE LIONS",
        "country": "Singapur",
        "city": "Johor",
        "site": "Bar Johor",
        "fundation": 2018,
        "phoneNumber": "65337872355621",
        "location": {
          "type": "Point",
          "coordinates": [1.48558, 103.76148]
        },
        "imgTourist": []
        
      },
      {
        "img": "https://www.atleticodemadrid.com/images/escudos_pa/811.jpg",
        "name": "PEÑA ATLÉTICA DE SUECIA",
        "country": "Suecia",
        "city": "Jonkoping",
        "site": "Bar Jonkon",
        "fundation": 2017,
        "phoneNumber": "46337872355621",
        "location": {
          "type": "Point",
          "coordinates": [57.78334, 14.15955]
        },
        "imgTourist": []
        
      },
      {
        "img": "https://www.atleticodemadrid.com/images/escudos_pa/635.jpg",
        "name": "PEÑA ATLÉTICA TIMOR LESTE",
        "country": "Timor Oriental",
        "city": "Dili",
        "site": "Bar Dil Atleti",
        "fundation": 2007,
        "phoneNumber": "670337872355621",
        "location": {
          "type": "Point",
          "coordinates": [-8.55767, 125.57077]
        },
        "imgTourist": []
        
      }
  ]